[
    {
        "name": "mekimi ",
        "branches": [
            {
                "adress": {
                    "city": {
                        "id": "1",
                        "name": "ירושלים"
                    },
                    "street": "ירמיהו",
                    "number": "43"
                },
                "phone": "02-6519374",
                "openhours": "10:00-22:00"
            },
            {
                "adress": {
                    "city": {
                        "id": "5",
                        "name": "בית שמש"
                    },
                    "street": " יגאל אלון  ",
                    "number": "1"
                },
                "phone": "02-9917374",
                "openhours": "09:30-22:00"
            },
            {
                "adress": {
                    "city": {
                        "id": "3",
                        "name": "מודיעין עילית"
                    },
                    "street": "יהודה הנשיא ",
                    "number": "24"
                },
                "phone": "08-6138700",
                "openhours": "10:00-22:00"
            },
            {
                "adress": {
                    "city": {
                        "id": "2",
                        "name": "בני ברק"
                    },
                    "street": "רבי עקיבא ",
                    "number": "77"
                },
                "phone": "03-5240304",
                "openhours": "10:00-22:00"
            },
            {
                "adress": {
                    "city": {
                        "id": "1",
                        "name": "ירושלים"
                    },
                    "street": " כנפי נשרים",
                    "number": "24"
                },
                "phone": "02-6540786",
                "openhours": "10:00-21300"
            },
            {
                "adress": {
                    "city": {
                        "id": "1",
                        "name": "ירושלים"
                    },
                    "street": " מלאכי ",
                    "number": "7"
                },
                "phone": "?",
                "open-hours": "09:00-21:30"
            },
            {
                "adress": {
                    "city": {
                        "id": "1",
                        "name": "ירושלים"
                    },
                    "street": "גולדה מאיר",
                    "number": "225"
                },
                "phone": "02-6438866",
                "openhours": "10:0-22:00"
            }
        ],
        "description": "בשנת 2007 קיבלנו החלטה להקים חברת אופנה, המתמחה באופנה צנועה לנשים ונערות. עבורנו מקימי היא התשובה המדויקת לאופנה הצנועה. אופנה שמשלבת בתוכה תחכום וריגוש לצד איכות, עושר והקפדה. שילוב זה מעניק לקהל לקוחותינו בטחון מלא בבחירות שלהן וכמובן, מענה אופנתי שלם. כחברה צעירה לאופנה וסגנון חיים, אנו משלבים בעיצוב הקולקציות אנרגטיות, צבעוניות, חופש ושמחה. אנו גאים להעניק לקהל לקוחותינו חוויה ייחודית ומרגשת, בכול תחומי המראה האישי וסגנון החיים. מקימי הינה חברת אופנה מובילה בישראל. אנו רואים בזאת מחויבות של כבוד והערכה כלפי קהל הלקוחות הרחב שלנו. בסטודיו שלנו פועלים כיום מיטב מעצבי האופנה והגרפיקה, כולם בוגרים מצטיינים של בתי הספר לעיצוב, כולם חיים ונושמים אופנה. מתוך דיאלוג פורה עם לקוחותינו, אנו יוצרים עבורכן קולקציות שנועדו ללוות אתכן במגוון הפעילויות והחוויות האישיות המרכיבות את חייכן – מהבית, דרך הלימודים והקריירה ועד האירועים המרגשים, בילוי עם חברים וכמובן, בחיי המשפחה.",
        "products": [
            "בגדים ליום חול",
            "בגדים לשבת",
            "חולצות בסיס "
        ],
        "maximumprice": "500",
        "picturesrc": "mekimi.png",
        "link": "https://mekimi.co.il/"
    },
    {
        "name": "banana",
        "branches": [
            {
                "adress": {
                    "city": {
                        "id": "1",
                        "name": "ירושלים"
                    },
                    "street": "ירמיהו",
                    "number": "43"
                },
                "phone": "0732-800707",
                "openhours": "10:00-22:00"
            },
            {
                "adress": {
                    "city": {
                        "id": "1",
                        "name": "ירושלים - אירועים"
                    },
                    "street": "אבא אבן",
                    "number": "8"
                },
                "phone": "050-6805563",
                "openhours": "בתיאום"
            },
            {
                "adress": {
                    "city": {
                        "id": "2",
                        "name": "בני ברק"
                    },
                    "street": "הרב קוק",
                    "number": "1"
                },
                "phone": "073-2800707",
                "openhours": "10:00-22:00"
            },
            {
                "adress": {
                    "city": {
                        "id": "3",
                        "name": "מודיעין עילית"
                    },
                    "street": "שדרות יחזקאל",
                    "number": "2"
                },
                "phone": "073-2800707",
                "openhours": "10:00-22:00"
            },
            {
                "adress": {
                    "city": {
                        "id": "1",
                        "name": "ירושלים"
                    },
                    "street": "גולדה מאיר",
                    "number": "225"
                },
                "phone": "073-2800707",
                "openhours": "10:0-22:00"
            }
        ],
        "description": "מותג האופנה ” banana ” היא אחת מחברות האופנה הצנועה המובילות לנשים, נערות וילדות בישראל ובעולם. את ההשראה לעיצובים המיוחדים של המותג שלנו שואבת בעלת החברה ומעצבת הבית ציפי קורצוויל ממעקב בלתי פוסק אחרי חדשות האופנה הכי חמות בבירות האופנה הגדולות. רשת “banana ” מובילה בתחום פרטי לבוש לשבת יום יום ואירועים לנשים נערות וילדות. החזון שלנו הוא להמשיך ולהיות ה-מובילים בתחום האופנה הצנועה ולהמשיך להביא לכן הרבה אופנה וסטייל עולמי.",
        "products": [
            "בגדים ליום חול",
            "בגדים לשבת"
        ],
        "maximumprice": "1600",
        "picturesrc": "banana.png",
        "link": "https://www.banana-fashion.co.il/"
    },
    {
        "name": "bianco nero",
        "branches": [
            {
                "adress": {
                    "city": {
                        "id": "1",
                        "name": "ירושלים"
                    },
                    "street": "שמגר",
                    "number": "21"
                },
                "phone": "02-9994173",
                "openhours": "10:00-22:00"
            },
            {
                "adress": {
                    "city": {
                        "id": "1",
                        "name": "ירושלים"
                    },
                    "street": "ירמיהו",
                    "number": "24"
                },
                "phone": "02-6287997",
                "openhours": "10:0-22:00"
            },
            {
                "adress": {
                    "city": {
                        "id": "2",
                        "name": "בני ברק"
                    },
                    "street": "הרב קוק",
                    "number": "6"
                },
                "phone": "03-9524707",
                "openhours": "10:00-22:00"
            }
        ],
        "description": "כבר למעלה מ-20 שנה שאנו נושמים , חולמים ויוצרים אופנה בכל העולם בשביל דבר אחד, להעניק לך את המראה המושלם וכדי שתהיי ותרגישי ייחודית, תמיד. חגית אור-אגסי בנתה קריירה מצליחה כמעצבת אופנה באירופה וארה”ב בזכות הסגנון הייחודי והסטייל האישי שלה. ביסוס מותג אישי ובלעדי משלה היה צעד מתבקש, ואכן משנת 2013 ניתן לרכוש את המותג BIANCO NERO גם בישראל. המותג ביאנקו נרו (שחור- לבן באיטלקית) רכש לעצמו קהל נאמן בזכות העיצוב הייחודי, הקולקציה המעוצבת בסגנון אירופאי קלאסי ומיוצרת באיכות קפדנית והכי חשוב בזכות הקולקציה המפתיעה המציגה מנעד רחב של אפשרויות שיגרמו לך להיראות נהדר בכל עת. ברשת החנויות תגלי בגדי ערב בקולקציה ייחודית המתאימה לאירועי ערב מרשימים לצד פריטים בעיצובים קלילים ומרעננים שיתאימו לך לשבת, חג וליומיום משודרג.נשמח לארח אותך באחת מחנויות הרשת ולהתאים לך את המראה המושלם, בשבילך.",
        "products": [
            "בגדים ליום חול",
            "בגדים לשבת"
        ],
        "maximumprice": "1645",
        "picturesrc": "bianco nero.png",
        "link": "https://bianconero.co.il/"
    },
    {
        "name": "חן פאשן",
        "description": "חן פאשן הוא מותג אופנה המוביל במגזר הדתי והחרדי. עבורנו חן היא התשובה לאופנה שמרנית ועדכנית כאחד. שילוב של אהבה ותשוקה לאופנה, איכות ועיצוב יחד. החברה עוסקת כבר שנים בייצור טקסטיל בארץ ובחול. ליין המאופיין בקו נקי ויחודי הנטול שכבות (עידן החולצות וחצאיות בסיס מאחורינו) השמלות מגיעות סגורות עם שרוול באורך דיו המתאים לציבור הדתי והחרדי.",
        "branches": [
            {
                "adress": {
                    "city": {
                        "id": "1",
                        "name": "ירושלים"
                    },
                    "street": "יפו",
                    "number": "50"
                },
                "phone": " 074-701-1654",
                "openhours": "9:00-21:00"
            },
            {
                "adress": {
                    "city": {
                        "id": "2",
                        "name": "בני ברק"
                    },
                    "street": "רבי עקיבא",
                    "number": "88"
                },
                "phone": "03-5456657",
                "openhours": "10:30-22:00"
            },
            {
                "adress": {
                    "city": {
                        "id": "7",
                        "name": "אשדוד"
                    },
                    "street": "יוסף בר חלפתא",
                    "number": "1"
                },
                "phone": " 072-2221620",
                "openhours": "10:00-21:00"
            },
            {
                "adress": {
                    "city": {
                        "id": "4",
                        "name": "ביתר"
                    },
                    "street": "בנין דוד ",
                    "number": "18"
                },
                "phone": " 02-5417512",
                "openhours": "10:00-21:30"
            },
            {
                "adress": {
                    "city": {
                        "id": "1",
                        "name": "ירושלים"
                    },
                    "street": "גולדה מאיר",
                    "number": "225"
                },
                "phone": "072-222-1523",
                "openhours": "10:00-21:00"
            },
            {
                "adress": {
                    "city": {
                        "id": "8",
                        "name": "אלעד"
                    },
                    "street": "רבי יהודה הנשיא",
                    "number": "97"
                },
                "phone": " 02-5417512",
                "openhours": "10:00-21:30"
            }
        ],
        "products": [
            "בגדים ליום חול",
            "בגדים לשבת"
        ],
        "maximumprice": "495",
        "picturesrc": "chen.png",
        "link": "https://www.chen-fashion.com/"
    },
    {
        "name": "נעלי מרטי",
        "description": "נעלי מרטי מייצרת ומשווקת נעליים לכל המשפחה כבר למעלה מ20 שנה!  החלנו את דרכנו ממכירת נעליים ובגדי ערב בחנות קטנה ברחוב שטראוס בירושלים ומאז ועד היום הרשת מעניקה שירות ב- 4 סניפים שעובדים בשיתוף פעולה מלא, נותנים מענה פרונטלי ודיגיטלי.  משלוחים עד הבית, יחס אישי ולקוחות קבועים מדור לדור שהפכו למשפחה.  זכינו להעניק בנעלי מרטי את האפשרות לכלל המשפחות לקנות ממגוון החברות המוכרות במחירים השווים לכל כיס ובשירות הטוב ביותר!  נשמח להעניק גם לכם ייעוץ, שירות ומשלוח מהיר לנעליים שלכם",
        "branches": [
            {
                "adress": {
                    "city": {
                        "id": "1",
                        "name": "ירושלים"
                    },
                    "street": "מלכי ישראל",
                    "number": "15"
                },
                "phone": "02-5371430",
                "openhours": "10:00-21:00"
            },
            {
                "adress": {
                    "city": {
                        "id": "1",
                        "name": "ירושלים"
                    },
                    "street": "מלאכי",
                    "number": "2"
                },
                "phone": "02-5380214",
                "openhours": "10:00-21:00"
            },
            {
                "adress": {
                    "city": {
                        "id": "3",
                        "name": "מודיעין עילית"
                    },
                    "street": "שדרות יחזקאל",
                    "number": "2"
                },
                "phone": "08-6437371",
                "openhours": "10:00-13:00 , 16:00-21:00"
            },
            {
                "adress": {
                    "city": {
                        "id": "4",
                        "name": "ביתר"
                    },
                    "street": "יסוד העבודה",
                    "number": "1"
                },
                "phone": "02-6507727",
                "openhours": "09:45-21:30"
            }
        ],
        "products": [
            "נעלי ספורט",
            "נעלי שבת",
            "נעלי בית"
        ],
        "maximumprice": "285",
        "picturesrc": "marty.png",
        "link": "https://marty-shoes.com/"
    },
    {
        "name": "מזל חזוט",
        "description": "המותג שלי נולד לפני ארבע שנים, מתוך רצון להביא בשורה חדשה לשוק. הקולקציות שאני מייצרת מעוצבת בהשראת מגמות האופנה המובילות בעולם, עם בחינה מעמיקה של היבט הנוחות כדי לתת ללקוחה את התחושה הטובה ביותר. וכמובן לפי גדרי ההלכה.  בקולקציית המותג תוכלו למצוא היצע רחב לשמחות ולשבתות ואף סגנון יומיומי אלגנטי. הדגמים מתאימים לנשים בכל גיל, מוצעים בטווח מידות רחב ופונים אל קהלים מגוונים, כך שכל אחת יכולה למצוא את הבגד הקולע לטעמה, לסגנונה ולרצונותיה.",
        "branches": [
            {
                "adress": {
                    "city": {
                        "id": "1",
                        "name": "ירושלים"
                    },
                    "street": "גולדה מאיר",
                    "number": "225"
                },
                "phone": "0507724848",
                "openhours": "11:00-21:30"
            },
            {
                "adress": {
                    "city": {
                        "id": "2",
                        "name": "בני ברק"
                    },
                    "street": "רבי עקיבא",
                    "number": "32"
                },
                "phone": "0507724848",
                "openhours": "11:00-21:30"
            },
            {
                "adress": {
                    "city": {
                        "id": "3",
                        "name": "מודיעין עילית"
                    },
                    "street": "נתיבות המשפט",
                    "number": "3"
                },
                "phone": "0507724848",
                "openhours": "11:00-21:30"
            },
            {
                "adress": {
                    "city": {
                        "id": "8",
                        "name": "אלעד"
                    },
                    "street": "יהודה הנשיא",
                    "number": "81"
                },
                "phone": "0507724848",
                "openhours": "11:00-21:30"
            }
        ],
        "products": [
            "בגדים לשבת",
            "בגדים ליום חול"
        ],
        "maximumprice": "400",
        "picturesrc": "mazal hazut.png",
        "link": "https://www.mazalhazut.com/blank-5"
    },
    {
        "name": "rachel h",
        "description": "מותג האופנה המוביל אשר הפך למותג מספר 1 בציבור החרדי. הקולקציה של רייצ’ל מיוצרת בעשרה מפעלים ברחבי אירופה, שם מיוצרות כל קולקציות הנשים, הנערות, הבנים והבנות. כל בד שנרכש לפריטי הקולקציה של רייצ’ל, נבדק ומתכבס במכונת כביסה ביתית בטרם יכנס לתפירה , כדי לוודא התנהגות איכותית של הבד בתנאים אמיתיים. הסטנדרט הגבוהה של פריטי האופנה ברייצ’ל הוא תוצר של עבודה מאומצת. רייצ’ל טסה לתערוכות ברחבי העולם בכדי להתעדכן בכל חידוש ומביאה את הטרנדים הכי חמים וחדשים למגזר.",
        "branches": [
            {
                "adress": {
                    "city": {
                        "id": "1",
                        "name": "ירושלים"
                    },
                    "street": "ירמיהו",
                    "number": "43"
                },
                "phone": "02-537-5520",
                "openhours": "11:00-21:30"
            },
            {
                "adress": {
                    "city": {
                        "id": "2",
                        "name": "בני ברק"
                    },
                    "street": "רבי עקיבא",
                    "number": "57"
                },
                "phone": "03-717-1640",
                "openhours": "11:00-21:30"
            },
            {
                "adress": {
                    "city": {
                        "id": "5",
                        "name": "בית שמש"
                    },
                    "street": "מנחם פרוש",
                    "number": "12"
                },
                "phone": "02-6702192",
                "openhours": "11:00-21:30"
            },
            {
                "adress": {
                    "city": {
                        "id": "1",
                        "name": "ירושלים"
                    },
                    "street": "גולדה מאיר",
                    "number": "225"
                },
                "phone": "02-537-5520",
                "openhours": "11:00-21:30"
            }
        ],
        "products": [
            "בגדים לשבת",
            "בגדים ליום חול"
        ],
        "maximumprice": "1189",
        "picturesrc": "rachel h.png",
        "link": "https://rachel-h.co.il/"
    },
    {
        "name": "zoya",
        "description": "זויה  הנה החברה המובילה בישראל לאופנה צנועה. נשים דתיות שמחפשות שילוב של צניעות, יופי וסטייל במחיר הגון – הגעתן למקום המושלם בשבילכן.   תמצאי את המבחר הגדול ביותר של חולצות, שמלות וחצאיות צנועות המתעדכן באופן תדיר. החנות ובעליה שמו להם למטרה להנגיש לבנות ישראל בגדים שיענו על כל כללי הצניעות.",
        "branches": [
            {
                "adress": {
                    "city": {
                        "id": "1",
                        "name": "ירושלים"
                    },
                    "street": "יפו",
                    "number": "54"
                },
                "phone": "054-4502609",
                "openhours": "10:00-21:00"
            },
            {
                "adress": {
                    "city": {
                        "id": "2",
                        "name": "בני ברק"
                    },
                    "street": "רבי עקיבא",
                    "number": "81"
                },
                "phone": "054-4502609",
                "openhours": "10:00-21:00"
            },
            {
                "adress": {
                    "city": {
                        "id": "5",
                        "name": "בית שמש"
                    },
                    "street": "יגאל אלון",
                    "number": "3"
                },
                "phone": "054-4502609",
                "openhours": "10:00-22:00"
            },
            {
                "adress": {
                    "city": {
                        "id": "3",
                        "name": "מודיעין עילית"
                    },
                    "street": "השל'ה",
                    "number": "2"
                },
                "phone": "054-4502609",
                "openhours": "9:00-21:30"
            },
            {
                "adress": {
                    "city": {
                        "id": "8",
                        "name": "אלעד"
                    },
                    "street": "בן שטח",
                    "number": "6"
                },
                "phone": "054-4502609",
                "openhours": "9:00-21:30"
            },
            {
                "adress": {
                    "city": {
                        "id": "1",
                        "name": "ירושלים"
                    },
                    "street": "יפו",
                    "number": "56"
                },
                "phone": "054-4502609",
                "openhours": "9:00-21:00"
            },
            {
                "adress": {
                    "city": {
                        "id": "1",
                        "name": "ירושלים"
                    },
                    "street": "מלכי ישראל",
                    "number": "14"
                },
                "phone": " 054-4502609",
                "openhours": "10:00-21:00"
            },
            {
                "adress": {
                    "city": {
                        "id": "2",
                        "name": "בני ברק"
                    },
                    "street": "רבי עקיבא",
                    "number": "41"
                },
                "phone": "054-4502609",
                "openhours": "9:30-21:30"
            },
            {
                "adress": {
                    "city": {
                        "id": "1",
                        "name": "ירושלים"
                    },
                    "street": "יפו",
                    "number": "56"
                },
                "phone": "054-4502609",
                "openhours": "9:00-21:00"
            },
            {
                "adress": {
                    "city": {
                        "id": "1",
                        "name": "ירושלים"
                    },
                    "street": "מלכי ישראל",
                    "number": "14"
                },
                "phone": " 054-4502609",
                "openhours": "10:00-21:00"
            },
            {
                "adress": {
                    "city": {
                        "id": "2",
                        "name": "בני ברק"
                    },
                    "street": "רבי עקיבא",
                    "number": "41"
                },
                "phone": "054-4502609",
                "openhours": "9:30-21:30"
            }
        ],
        "products": [
            "בגדים ליום חול",
            "חולצות בסיס",
            "נעלי בית"
        ],
        "maximumprice": "100",
        "picturesrc": "zoya.png",
        "link": "https://zoyaonline.co.il/"
    },
    {
        "name": "אורדמן",
        "description": "  כשאת לובשת אורדמן, את יודעת שמעבר לעיצוב מדהים וגזרה מושלמת, את מקבלת את הבדים האיכותיים ביותר ותפירה אירופאית ברמה הגבוהה ביותר.אורדמן, אופנת הנוחות המובילה בציבור החרדי, מגדירה את הנוחות שלך בכל פעם מחדש כבר למעלה מעשרים שנה.",
        "branches": [
            {
                "adress": {
                    "city": {
                        "id": "1",
                        "name": "ירושלים"
                    },
                    "street": "גולדה מאיר",
                    "number": "225"
                },
                "phone": "1700-501-039",
                "openhours": "10:00-21:00"
            },
            {
                "adress": {
                    "city": {
                        "id": "5",
                        "name": "בית שמש"
                    },
                    "street": "נהר הירדן",
                    "number": "34"
                },
                "phone": "1700-501-039",
                "openhours": "10:00-22:00"
            },
            {
                "adress": {
                    "city": {
                        "id": "8",
                        "name": "אלעד"
                    },
                    "street": "יהודה הנשיא",
                    "number": "100"
                },
                "phone": "1700-501-039",
                "openhours": "9:00-21:30"
            },
            {
                "adress": {
                    "city": {
                        "id": "4",
                        "name": "ביתר"
                    },
                    "street": "הר'ן",
                    "number": "1"
                },
                "phone": "1700-501-039",
                "openhours": "9:00-21:30"
            }
        ],
        "products": [
            "בגדים ליום חול",
            "חולצות בסיס",
            "חלוקים",
            "פיג'מות",
            "כותנות"
        ],
        "maximumprice": "629",
        "picturesrc": "אורדמן.png",
        "link": "https://www.ordman.co.il/"
    },
    {
        "name": "חיותה",
        "branches": [
            {
                "adress": {
                    "city": {
                        "id": "1",
                        "name": "ירושלים"
                    },
                    "street": "הישיבה",
                    "number": "3"
                },
                "phone": "02-5022303",
                "openhours": "10:00-20:30"
            },
            {
                "adress": {
                    "city": {
                        "id": "5",
                        "name": "בית שמש"
                    },
                    "street": "נהר הירדן",
                    "number": "23"
                },
                "phone": "02-8000806",
                "openhours": "11:00-13:00"
            },
            {
                "adress": {
                    "city": {
                        "id": "2",
                        "name": "בני ברק"
                    },
                    "street": "רבי עקיבא ",
                    "number": "65"
                },
                "phone": " 03-6183306",
                "openhours": "10:00-21:30"
            },
            {
                "adress": {
                    "city": {
                        "id": "7",
                        "name": "אשדוד"
                    },
                    "street": "עקביא בן מהללאל",
                    "number": "9"
                },
                "phone": "08-8659666",
                "openhours": "20:00-23:00"
            }
        ],
        "description": "רשת חיותה בלארג'-נוסדה בשנת 2006 ע'י שלומי וחיותה ליבוביץ, כאשר חיותה מופקדת על תחום העיצוב ושלומי על תחום הניהול.  הבחירה במותג למידות גדולות לנשים נבעה מתוך היכרות רבת שנים עם לקוחות מאוכזבות שלא מצאו את מבוקשן בחנויות הרגילות ולמרות רצונן האמיתי להתלבש באופן אופנתי ונשי המתאים למידותיהן, נאלצו לכתת רגליים ולהסתפק בהיצע מצומצם ולהתפשר. חיותה בלארג' הינה רשת יחודית המציגה בחנויותיה קולקצית מידות גדולות בלבד! החל ממידה 42 עד מידה 60 כאשר הכוונה היא ליצור בעבור לקוחותינו מקום אחד ומיוחד המרכז את מיטב הקולקציה הנדרשת לאורך כל השנה, החל במערכות ליום יום במראה ספורטיבי וכלה בפריטים אלגנטיים לשבת ולאירועים חגיגיים.",
        "products": [
            "בגדים ליום חול",
            "בגדים לשבת",
            "חולצות בסיס"
        ],
        "maximumprice": "630",
        "picturesrc": "חיותה.png",
        "link": "https://hayuta-belarge.co.il/"
    },
    {
        "name": "napa",
        "branches": [
            {
                "adress": {
                    "city": {
                        "id": "1",
                        "name": "ירושלים"
                    },
                    "street": "גולדה מאיר",
                    "number": "225"
                },
                "phone": "02-6435559",
                "openhours": "09:30-22:00"
            },
            {
                "adress": {
                    "city": {
                        "id": "3",
                        "name": "מודיעין עילית"
                    },
                    "street": "חפץ חיים",
                    "number": "5"
                },
                "phone": "08-6104444",
                "openhours": "11:30-22:00"
            }
        ],
        "description": "נעלי איכות לגברים, נשים וילדים.  מבחר גדול, ושירות לפני הכל!",
        "products": [
            "נעלי שבת",
            "נעלי ספורט",
            "נעלי בית"
        ],
        "maximumprice": "630",
        "picturesrc": "napa.png",
        "link": "https://easy.co.il/page/10102610"
    },
    {
        "name": "בזאר שטראוס",
        "branches": [
            {
                "adress": {
                    "city": {
                        "id": "1",
                        "name": "ירושלים"
                    },
                    "street": "גולדה מאיר",
                    "number": "225"
                },
                "phone": "02-5413377",
                "openhours": "09:00-21:30"
            },
            {
                "adress": {
                    "city": {
                        "id": "2",
                        "name": "בני ברק"
                    },
                    "street": "יעקב לנדא",
                    "number": "4"
                },
                "phone": "03-6822622",
                "openhours": "09:00-21:30"
            },
            {
                "adress": {
                    "city": {
                        "id": "4",
                        "name": "ביתר"
                    },
                    "street": "הר'ן",
                    "number": "7"
                },
                "phone": "02-5800111",
                "openhours": "09:00-21:30"
            },
            {
                "adress": {
                    "city": {
                        "id": "3",
                        "name": "מודיעין עילית"
                    },
                    "street": "רשב'י",
                    "number": "46"
                },
                "phone": "08-9966656",
                "openhours": "0:00-21:30"
            },
            {
                "adress": {
                    "city": {
                        "id": "8",
                        "name": "אלעד"
                    },
                    "street": "יהודה הנשיא",
                    "number": "94"
                },
                "phone": "03-9075303",
                "openhours": "0:00-21:30"
            },
            {
                "adress": {
                    "city": {
                        "id": "5",
                        "name": "בית שמש"
                    },
                    "street": "נחל קטלב",
                    "number": "4"
                },
                "phone": "02-9994745",
                "openhours": "0:00-21:30"
            },
            {
                "adress": {
                    "city": {
                        "id": "5",
                        "name": "בית שמש"
                    },
                    "street": "שד' יצחק רבין",
                    "number": "2"
                },
                "phone": "02-9919166",
                "openhours": "0:00-21:30"
            },
            {
                "adress": {
                    "city": {
                        "id": "2",
                        "name": "בני ברק"
                    },
                    "street": "ירושלים",
                    "number": "7"
                },
                "phone": "03-5058288",
                "openhours": "09:00-21:30"
            },
            {
                "adress": {
                    "city": {
                        "id": "1",
                        "name": "ירושלים"
                    },
                    "street": "שטראוס",
                    "number": "10"
                },
                "phone": "02-5372939",
                "openhours": "09:00-21:30"
            },
            {
                "adress": {
                    "city": {
                        "id": "1",
                        "name": "ירושלים"
                    },
                    "street": "יחזקאל",
                    "number": "11"
                },
                "phone": "02-5378387",
                "openhours": "09:00-21:30"
            },
            {
                "adress": {
                    "city": {
                        "id": "1",
                        "name": "ירושלים"
                    },
                    "street": "בית הדפוס",
                    "number": "9"
                },
                "phone": "02-6529295",
                "openhours": "09:00-21:30"
            },
            {
                "adress": {
                    "city": {
                        "id": "1",
                        "name": "ירושלים"
                    },
                    "street": "פועלי צדק",
                    "number": "2"
                },
                "phone": "02-6796888",
                "openhours": "09:00-21:30"
            }
        ],
        "description": "רשת בזאר שטראוס מונה כ-14 חנויות  בכל מחלקה ברחבי החנות תעמוד לרשותכם מוכרת מקצועית התעזור לכם בכל מהלך  כל הקניה, תענה על שאלות ותציע את המוצרים הרלוונטים לבקשותכם.  את כל מוצרי החנות ניתן לרכוש גם באתר האנטרנט, לכל מוצר תמונה ותיאור מפורט המאפשר לכם לדעת יותר על המוצר.",
        "products": [
            "פיג'מות",
            "כותנות",
            "קרסוליות",
            "גרבי רגל",
            "גרביים שחורות",
            "חלוקי מגבת",
            "חלוקים",
            "מטפחות/בנדנות",
            "חולצות בסיס",
            "גופיות קיץ",
            "גופיות חורף"
        ],
        "maximumprice": "200",
        "picturesrc": "בזאר שטראוס.gif",
        "link": "https://www.bazars.co.il/"
    },
    {
        "name": "TO GO",
        "branches": [
            {
                "adress": {
                    "city": {
                        "id": "1",
                        "name": "ירושלים"
                    },
                    "street": "גולדה מאיר",
                    "number": "225"
                },
                "phone": "02-5413377",
                "openhours": "09:30-22:00"
            },
            {
                "adress": {
                    "city": {
                        "id": "5",
                        "name": "בית שמש"
                    },
                    "street": "יגאל אלון",
                    "number": "3"
                },
                "phone": "02-6529295",
                "openhours": "10:00-22:00"
            },
            {
                "adress": {
                    "city": {
                        "id": "7",
                        "name": "אשדוד"
                    },
                    "street": "ז'בוטינסקי",
                    "number": "45"
                },
                "phone": "02-6796888",
                "openhours": "09:30-21:30"
            },
            {
                "adress": {
                    "city": {
                        "id": "1",
                        "name": "ירושלים"
                    },
                    "street": "כנפי נשרים",
                    "number": "22"
                },
                "phone": "02-5372939",
                "openhours": "09:30-21:00"
            },
            {
                "adress": {
                    "city": {
                        "id": "1",
                        "name": "ירושלים"
                    },
                    "street": "ירמיהו",
                    "number": "43"
                },
                "phone": "02-5378387",
                "openhours": "10:00-21:00"
            }
        ],
        "description": "טו גו מציעה  מגוון עצום של דגמים אופנתיים ואיכותיים, המתעדכנים ומתחדשים בהתמדה, ומדי עונה נמכרים בה למעלה מ- 800 דגמים שונים. כל קולקציה של מעוצבת בקפידה על ידי צוות של מיטב המעצבות, בהתאם למגמות העדכניות ביותר של בתי האופנה הגדולים והמובילים בעולם.  להשלמת המראה משווקת הרשת בנוסף אביזרים משלימים, כגון תיקים, ארנקים, גרביים וחגורות ברוח הקולקציה. כל מוצרי החברה מיוצרים באופן בלעדי עבור הרשת במפעלי החברה הממוקמים בחו ל, ועוברים תהליכי בקרת איכות קפדנית ומחמירה במיוחד. כדי לאפשר לכל אישה לרכוש נעליים ללא הגבלה, מובילה הרשת מדיניות מחירים נוחה ומשווקת נעליים במחירים משתלמים  .",
        "products": [
            "נעלי בית",
            "נעלי יום חול",
            "נעלי ספורט",
            "נעלי שבת"
        ],
        "maximumprice": "200",
        "picturesrc": "to go.gif",
        "link": "https://www.togonline.co.il/"
    },
    {
        "name": "family shoes",
        "branches": [
            {
                "adress": {
                    "city": {
                        "id": "2",
                        "name": "בני ברק"
                    },
                    "street": "אהרונוביץ",
                    "number": "16"
                },
                "phone": "0548932808",
                "openhours": "10:00-20:30"
            }
        ],
        "description": "פמילי שוז הוקמה בשנת 1999 במתחם פמילי סנטר ומכאן שמה. עם הזמן, ההתפתחות ובהתאם לביקוש ההולך וגדל מצד לקוחותיה הרבים, נפתחה כמתחם עצמאי המשתרע על פני 300 מר בסמוך לפמילי סנטר. החנות תוכננה בהתאמה ובחשיבה מרובה על מנת ליצור חווית קניה נוחה ונעימה למשפחה.  פמילי שוז  מובילה מהפך בתחום ההנעלה והנפיקה את מותג הבית פסיפלורה, אשר מתאפיין במבחר ענק של נעליים מרהיבות ואיכותיות במחיר השווה לכל כיס.   בכל עונה ״פמילי שוז״ בונה בקפידה קולקציה עיצובית וייחודית בת מאות דגמים טרנדיים ועכשוויים בצבעוניות נרחבת המתאימה לכל גווני האוכלוסיה בישראל.",
        "products": [
            "נעלי בית",
            "נעלי יום חול",
            "נעלי ספורט",
            "נעלי שבת"
        ],
        "maximumprice": "100",
        "picturesrc": "family shoes.gif",
        "link": "https://familyshoes.co.il/"
    }
]